[{"address": "602 Highway 31 SW", "city": "Hartselle", "country": "US", "keys": "us/al/hartselle/602highway31sw/-864103396", "latitude": "34.439438", "longitude": "-86.940455", "name": "Taco Bell", "postalCode": "35640", "province": "AL", "websites": "http://www.tacobell.com,https://locations.tacobell.com/al/hartselle/602-highway-31-south.html?utm_source=yextandutm_campaign=yextpowerlistingsandutm_medium=referralandutm_term=029149andutm_content=website"}, {"address": "324 W Bypass", "city": "Andalusia", "country": "US", "keys": "us/al/andalusia/324wbypass/93075755", "latitude": "31.30789", "longitude": "-86.4999", "name": "Arby's", "postalCode": "36420", "province": "AL", "websites": "http://www.arbys.com,https://locations.arbys.com/us/al/andalusia/324-west-bypass.html"}, {"address": "6694 Highway 431 S", "city": "Owens Cross Roads", "country": "US", "keys": "us/al/owenscrossroads/6694highway431s/-864103396", "latitude": "34.657839", "longitude": "-86.483357", "name": "Taco Bell", "postalCode": "35763", "province": "AL", "websites": "http://www.tacobell.com"}, {"address": "220 S Main St", "city": "Atmore", "country": "US", "keys": "us/al/atmore/220smainst/-2061630068", "latitude": "31.02181", "longitude": "-87.49386", "name": "Burger King", "postalCode": "36502", "province": "AL", "websites": "http://www.bk.com,https://locations.bk.com/al/atmore/220-south-main-st.html,https://www.bk.com"}, {"address": "11292 Old 63 S", "city": "Lucedale", "country": "US", "keys": "us/al/lucedale/11292old63s/-2061630068", "latitude": "30.733883", "longitude": "-88.4936", "name": "Burger King", "postalCode": "39452-6632", "province": "AL", "websites": "http://bk.com"}, {"address": "2395 Pass Rd", "city": "Biloxi", "country": "US", "keys": "us/al/biloxi/2395passrd/-2061630068", "latitude": "30.40158", "longitude": "-88.97576", "name": "Burger King", "postalCode": "39531", "province": "AL", "websites": "https://locations.bk.com/ms/biloxi/2395-pass-rd.html,http://www.bk.com"}, {"address": "309 S Pearson Rd.", "city": "Pearl", "country": "US", "keys": "us/al/pearl/309spearsonrd./1082608893", "latitude": "32.26905", "longitude": "-90.13568", "name": "Waffle House", "postalCode": "39208", "province": "AL", "websites": ""}, {"address": "4337 Robinson St", "city": "Jackson", "country": "US", "keys": "us/al/jackson/4337robinsonst/-1103173748", "latitude": "32.300625709", "longitude": "-90.258128236", "name": "Popeye's Chicken & Biscuits", "postalCode": "39209", "province": "AL", "websites": "http://popeyes.com"}, {"address": "4725 Clinton Blvd", "city": "Jackson", "country": "US", "keys": "us/al/jackson/4725clintonblvd/-1103173748", "latitude": "32.328147485", "longitude": "-90.251587368", "name": "Popeye's Chicken & Biscuits", "postalCode": "39209", "province": "AL", "websites": "http://popeyes.com"}, {"address": "1195 Greenmor Dr", "city": "Bessemer", "country": "US", "keys": "us/al/bessemer/1195greenmordr/-1161002137", "latitude": "33.336959", "longitude": "-86.922153", "name": "McDonald's", "postalCode": "35022", "province": "AL", "websites": "http://mcdonalds.com,http://www.mcdonalds.com/?cid=RF:YXT_FM:TP::Yext:Referral"}, {"address": "3545 Pelham Pkwy", "city": "Pelham", "country": "US", "keys": "us/al/pelham/3545pelhampkwy/1780593795", "latitude": "33.26731", "longitude": "-86.80972", "name": "SONIC Drive In", "postalCode": "35124", "province": "AL", "websites": "https://locations.sonicdrivein.com/al/pelham/3545-pelham-parkway.html,http://sonicdrivein.com"}, {"address": "1668 Gadsden Hwy", "city": "Birmingham", "country": "US", "keys": "us/al/birmingham/1668gadsdenhwy/93075755", "latitude": "33.60165", "longitude": "-86.6397", "name": "Arby's", "postalCode": "35235", "province": "AL", "websites": "https://locations.arbys.com/us/al/birmingham/1668-gadsden-hwy.html,http://www.arbys.com,http://locations.arbys.com/us/al/birmingham/1668-gadsden-hwy.html"}, {"address": "1551 Gulf Shores Pkwy", "city": "Gulf Shores", "country": "US", "keys": "us/al/gulfshores/1551gulfshorespkwy/93075755", "latitude": "30.266621", "longitude": "-87.689042", "name": "Arby's", "postalCode": "36542", "province": "AL", "websites": "http://www.arbys.com,http://locations.arbys.com/us/al/gulf-shores/1551-gulf-shores-pkwy.html"}, {"address": "1165 S McKenzie St", "city": "Foley", "country": "US", "keys": "us/al/foley/1165smckenziest/-864103396", "latitude": "30.39366", "longitude": "-87.68278", "name": "Taco Bell", "postalCode": "36535", "province": "AL", "websites": "http://www.tacobell.com,https://locations.tacobell.com/al/foley/1165-south-mckenzie-street.html?utm_source=yextandutm_campaign=yextpowerlistingsandutm_medium=referralandutm_term=023767andutm_content=website"}, {"address": "105 River Square Plz", "city": "Bessemer", "country": "US", "keys": "us/al/bessemer/105riversquareplz/93075755", "latitude": "33.45148", "longitude": "-86.98399", "name": "Arby's", "postalCode": "35023", "province": "AL", "websites": "http://www.arbys.com,https://locations.arbys.com/us/al/hueytown/105-river-square-plz.html,http://locations.arbys.com/us/al/hueytown/105-river-square-plz.html"}, {"address": "3069 Allison Bonnett Memorial Dr", "city": "Bessemer", "country": "US", "keys": "us/al/bessemer/3069allisonbonnettmemorialdr/-1161002137", "latitude": "33.450315", "longitude": "-86.984261", "name": "McDonalds", "postalCode": "35023", "province": "AL", "websites": "http://mcdonalds.com,http://www.mcdonalds.com/?cid=RF:YXT_FM:TP::Yext:Referral"}, {"address": "3040 Allison Bonnett Memorial Dr", "city": "Bessemer", "country": "US", "keys": "us/al/bessemer/3040allisonbonnettmemorialdr/1780593795", "latitude": "33.45102", "longitude": "-86.98081", "name": "SONIC Drive In", "postalCode": "35023", "province": "AL", "websites": "https://locations.sonicdrivein.com/al/hueytown/3040-allison-bonnett-mem-dr.html"}, {"address": "3067 Allison Bonnett Memorial Dr", "city": "Bessemer", "country": "US", "keys": "us/al/bessemer/3067allisonbonnettmemorialdr/-1560457549", "latitude": "33.45022", "longitude": "-86.98517", "name": "Captain D's", "postalCode": "35023", "province": "AL", "websites": "https://locations.captainds.com/al/hueytown/3067-allison-bonnett-memorial-dr.html"}, {"address": "7701 Airport Boulevard", "city": "Mobile", "country": "US", "keys": "us/al/mobile/7701airportboulevard/-2061630068", "latitude": "30.68396", "longitude": "-88.22206", "name": "Burger King", "postalCode": "36608", "province": "AL", "websites": ""}, {"address": "3117 S McKenzie St", "city": "Foley", "country": "US", "keys": "us/al/foley/3117smckenziest/-448666054", "latitude": "30.3685", "longitude": "-87.6834", "name": "Five Guys", "postalCode": "36535", "province": "AL", "websites": "http://fiveguys.com"}, {"address": "7775 Moffett Rd", "city": "Mobile", "country": "US", "keys": "us/al/mobile/7775moffettrd/-2061630068", "latitude": "30.76113", "longitude": "-88.22429", "name": "Burger King", "postalCode": "36618", "province": "AL", "websites": "http://www.bk.com"}, {"address": "2415 Schillinger Rd South", "city": "Mobile", "country": "US", "keys": "us/al/mobile/2415schillingerrdsouth/-1161002137", "latitude": "30.6409", "longitude": "-88.2241", "name": "Mcdonald's", "postalCode": "36695", "province": "AL", "websites": "http://mcdonalds.com,http://www.mcdonalds.com/?cid=RF:YXT_FM:TP::Yext:Referral"}, {"address": "2545 Cong W L Dickinson Dr", "city": "Montgomery", "country": "US", "keys": "us/al/montgomery/2545congwldickinsondr/-791445730", "latitude": "32.4185", "longitude": "-86.2327", "name": "Wendy's", "postalCode": "36109", "province": "AL", "websites": "http://www.wendys.com"}, {"address": "2280 7th Street South", "city": "Clanton", "country": "US", "keys": "us/al/clanton/22807thstreetsouth/1832448210", "latitude": "32.8009", "longitude": "-86.5746", "name": "Whataburger", "postalCode": "35045", "province": "AL", "websites": "https://locations.whataburger.com/al/clanton/2280-7th-street-south.html/,https://locations.whataburger.com/al/clanton/2280-7th-street-south.html/?utm_source=yextpages&utm_medium=locallistings&utm_campaign=yextpages"}, {"address": "2203 Ross Clark Cir", "city": "Dothan", "country": "US", "keys": "us/al/dothan/2203rossclarkcir/-2061630068", "latitude": "31.19025", "longitude": "-85.40306", "name": "Burger King", "postalCode": "36301", "province": "AL", "websites": "http://www.bk.com,https://locations.bk.com/al/dothan/2203-ross-clark-circle-s-w.html"}, {"address": "2794 Ross Clark Circle", "city": "Dothan", "country": "US", "keys": "us/al/dothan/2794rossclarkcircle/1241037051", "latitude": "31.212805", "longitude": "-85.428003", "name": "Bojangles' Famous Chicken 'n Biscuits", "postalCode": "36301", "province": "AL", "websites": "http://www.bojangles.com,http://locations.bojangles.com/al/dothan/2794-ross-clark-circle.html"}, {"address": "2100 Ross Clark Cir", "city": "Dothan", "country": "US", "keys": "us/al/dothan/2100rossclarkcir/-791445730", "latitude": "31.1908", "longitude": "-85.3979", "name": "Wendy's", "postalCode": "36301", "province": "AL", "websites": "http://www.wendys.com"}, {"address": "3056 Ross Clark Cir", "city": "Dothan", "country": "US", "keys": "us/al/dothan/3056rossclarkcir/-864103396", "latitude": "31.225377", "longitude": "-85.431699", "name": "Taco Bell", "postalCode": "36301", "province": "AL", "websites": "http://www.tacobell.com,https://locations.tacobell.com/al/dothan/3056-ross-clark-cir.html?utm_source=yextandutm_campaign=yextpowerlistingsandutm_medium=referralandutm_term=003942andutm_content=website,https://locations.tacobell.com/al/dothan/3056-ross-clark-cir.html?utm_source=yext&utm_campaign=yextpowerlistings&utm_medium=referral&utm_term=003942&utm_content=website"}, {"address": "3430 S Oates St", "city": "Dothan", "country": "US", "keys": "us/al/dothan/3430soatesst/93075755", "latitude": "31.17676", "longitude": "-85.40265", "name": "Arby's", "postalCode": "36301", "province": "AL", "websites": "https://locations.arbys.com/us/al/dothan/3430-s-oates-st.html,http://www.arbys.com,http://locations.arbys.com/us/al/dothan/3430-s-oates-st.html"}, {"address": "4037 West Main St", "city": "Dothan", "country": "US", "keys": "us/al/dothan/4037westmainst/93075755", "latitude": "31.233344", "longitude": "-85.452478", "name": "Arby's", "postalCode": "36303", "province": "AL", "websites": "http://www.arbys.com"}, {"address": "1880 McFarland Blvd", "city": "Northport", "country": "US", "keys": "us/al/northport/1880mcfarlandblvd/-864103396", "latitude": "33.239588", "longitude": "-87.576103", "name": "Taco Bell", "postalCode": "35476", "province": "AL", "websites": "http://www.tacobell.com,https://locations.tacobell.com/al/northport/1880-mcfarland-blvd.html?utm_source=yextandutm_campaign=yextpowerlistingsandutm_medium=referralandutm_term=029115andutm_content=website,https://locations.tacobell.com/al/northport/1880-mcfarland-blvd.html?utm_source=yext&utm_campaign=yextpowerlistings&utm_medium=referral&utm_term=029115&utm_content=website"}, {"address": "2130 Quintard Ave", "city": "Anniston", "country": "US", "keys": "us/al/anniston/2130quintardave/-864103396", "latitude": "33.672574", "longitude": "-85.827124", "name": "Taco Bell", "postalCode": "36201", "province": "AL", "websites": "http://www.tacobell.com,https://locations.tacobell.com/al/anniston/2130-quintard-ave.html?utm_source=yextandutm_campaign=yextpowerlistingsandutm_medium=referralandutm_term=029148andutm_content=website,https://locations.tacobell.com/al/anniston/2130-quintard-ave.html?utm_source=yext&utm_campaign=yextpowerlistings&utm_medium=referral&utm_term=029148&utm_content=website,https://locations.tacobell.com/al/anniston/2130-quintard-ave.html?utm_source= yextandutm_campaign=yextpowerlistings andutm_medium=referralandutm_term=029148andutm_content=website"}, {"address": "39 Horse Creek Blvd", "city": "Dora", "country": "US", "keys": "us/al/dora/39horsecreekblvd/-864103396", "latitude": "33.757142", "longitude": "-87.064476", "name": "Taco Bell", "postalCode": "35062", "province": "AL", "websites": "http://www.tacobell.com,https://locations.tacobell.com/al/dora/39-horse-creek-blvd.html?utm_source=yextandutm_campaign=yextpowerlistingsandutm_medium=referralandutm_term=029126andutm_content=website,https://locations.tacobell.com/al/dora/39-horse-creek-blvd.html?utm_source=yext&utm_campaign=yextpowerlistings&utm_medium=referral&utm_term=029126&utm_content=website"}, {"address": "910 S McKenzie St", "city": "Foley", "country": "US", "keys": "us/al/foley/910smckenziest/-2061630068", "latitude": "30.39611", "longitude": "-87.6839", "name": "Burger King", "postalCode": "36535", "province": "AL", "websites": "http://www.bk.com,https://locations.bk.com/al/foley/910-south-mc-kenzie-st.html"}, {"address": "620 McMeans Ave", "city": "Bay Minette", "country": "US", "keys": "us/al/bayminette/620mcmeansave/93075755", "latitude": "30.88411", "longitude": "-87.78761", "name": "Arby's", "postalCode": "36507", "province": "AL", "websites": "http://www.arbys.com,https://locations.arbys.com/us/al/bay-minette/620-mcmeans-ave.html,http://locations.arbys.com/us/al/bay-minette/620-mcmeans-ave.html"}, {"address": "2400 S McKenzie St", "city": "Foley", "country": "US", "keys": "us/al/foley/2400smckenziest/-442344130", "latitude": "30.380781", "longitude": "-87.683894", "name": "Krystal", "postalCode": "36535", "province": "AL", "websites": "http://t.co/3VQiWtMxPf,http://www.krystal.com/locations/alabama/foley-south-mckenzie,http://www.krystal.com/locations/alabama/foley-south-mckenzie/"}, {"address": "621 Mcmeans Ave", "city": "Bay Minette", "country": "US", "keys": "us/al/bayminette/621mcmeansave/-864103396", "latitude": "30.88406", "longitude": "-87.78817", "name": "Taco Bell", "postalCode": "36507", "province": "AL", "websites": "https://locations.tacobell.com/al/bay-minette/621-mcmeans-ave.html?utm_source=yextandutm_campaign=yextpowerlistingsandutm_medium=referralandutm_term=023772andutm_content=website,http://www.tacobell.com,https://locations.tacobell.com/al/bay-minette/621-mcmeans-ave.html?utm_source=yext&utm_campaign=yextpowerlistings&utm_medium=referral&utm_term=023772&utm_content=website"}, {"address": "3013 S Mckenzie St", "city": "Foley", "country": "US", "keys": "us/al/foley/3013smckenziest/-345832572", "latitude": "30.369058", "longitude": "-87.683065", "name": "Chick-fil-A", "postalCode": "36535", "province": "AL", "websites": "http://www.chick-fil-a.com/foley,http://www.chick-fil-a.com"}, {"address": "3064 Warrior River Road", "city": "Bessemer", "country": "US", "keys": "us/al/bessemer/3064warriorriverroad/-864103396", "latitude": "33.450731", "longitude": "-86.98456", "name": "Taco Bell", "postalCode": "35023", "province": "AL", "websites": "http://www.tacobell.com,https://locations.tacobell.com/al/hueytown/3064-warrior-river-road.html?utm_source=yext&utm_campaign=yextpowerlistings&utm_medium=referral&utm_term=029141&utm_content=website"}, {"address": "1690 Highway 72 E", "city": "Huntsville", "country": "US", "keys": "us/al/huntsville/1690highway72e/106088", "latitude": "34.7733", "longitude": "-86.5338", "name": "KFC", "postalCode": "35811", "province": "AL", "websites": ""}, {"address": "2600 N Memorial Pky", "city": "Huntsville", "country": "US", "keys": "us/al/huntsville/2600nmemorialpky/-1161002137", "latitude": "34.758", "longitude": "-86.5919", "name": "McDonald's", "postalCode": "35810", "province": "AL", "websites": "http://www.mcdonalds.com,http://www.mcdonalds.com/?cid=RF:YXT_FM:TP::Yext:Referral"}, {"address": "619 W Main St", "city": "Dothan", "country": "US", "keys": "us/al/dothan/619wmainst/-1161002137", "latitude": "31.225233", "longitude": "-85.40032", "name": "McDonald's", "postalCode": "36301", "province": "AL", "websites": "http://mcdonalds.com,http://www.mcdonalds.com/?cid=RF:YXT_FM:TP::Yext:Referral"}, {"address": "2101 Ross Clark Cir", "city": "Dothan", "country": "US", "keys": "us/al/dothan/2101rossclarkcir/-1161002137", "latitude": "31.18925", "longitude": "-85.39791", "name": "McDonald's", "postalCode": "36301", "province": "AL", "websites": "http://www.mcdonalds.com,http://www.mcdonalds.com/?cid=RF:YXT_FM:TP::Yext:Referral"}, {"address": "1003 Quintard Dr", "city": "Oxford", "country": "US", "keys": "us/al/oxford/1003quintarddr/-2061630068", "latitude": "33.60864", "longitude": "-85.828", "name": "Burger King", "postalCode": "36203", "province": "AL", "websites": "http://www.bk.com,https://locations.bk.com/al/oxford/1003-highway-21-south.html"}, {"address": "5401 Atlanta Hwy", "city": "Montgomery", "country": "US", "keys": "us/al/montgomery/5401atlantahwy/696490760", "latitude": "32.38195", "longitude": "-86.2136", "name": "Hardee's", "postalCode": "36109", "province": "AL", "websites": "http://www.hardees.com"}, {"address": "1115 Coliseum Blvd", "city": "Montgomery", "country": "US", "keys": "us/al/montgomery/1115coliseumblvd/696490760", "latitude": "32.40602", "longitude": "-86.26585", "name": "Hardee's", "postalCode": "36110", "province": "AL", "websites": "http://www.hardees.com"}, {"address": "3921 McFarland Blvd", "city": "Northport", "country": "US", "keys": "us/al/northport/3921mcfarlandblvd/1241037051", "latitude": "33.23827", "longitude": "-87.59659", "name": "Bojangles' Famous Chicken 'n Biscuits", "postalCode": "35476", "province": "AL", "websites": "http://www.bojangles.com,https://locations.bojangles.com/al/northport/3921-mcfarland-blvd.html,http://locations.bojangles.com/al/northport/3921-mcfarland-blvd.html"}, {"address": "6601 Highway 69 South", "city": "Tuscaloosa", "country": "US", "keys": "us/al/tuscaloosa/6601highway69south/1241037051", "latitude": "33.1479", "longitude": "-87.543967", "name": "Bojangles' Famous Chicken 'n Biscuits", "postalCode": "35405", "province": "AL", "websites": "http://www.bojangles.com"}, {"X": "-80.68227993", "Y": "32.3894647", "OBJECTID": "8581", "ID": "11", "NAME": "NAVAL HOSPITAL BEAUFORT", "ADDRESS": "1 PINCKNEY BLVD", "CITY": "BEAUFORT", "STATE": "SC", "ZIP": "29902", "ZIP4": "NOT AVAILABLE", "TELEPHONE": "NOT AVAILABLE", "TYPE": "MILITARY", "STATUS": "OPEN", "POPULATION": "-999", "COUNTY": "BEAUFORT", "COUNTYFIPS": "45013", "COUNTRY": "USA", "LATITUDE": "32.3894647", "LONGITUDE": "-80.68227993", "NAICS_CODE": "622110", "NAICS_DESC": "GENERAL MEDICAL AND SURGICAL HOSPITALS", "SOURCE": "http://www.tricare.mil/mtf", "SOURCEDATE": "2018-02-28T00:00:00.000Z", "VAL_METHOD": "IMAGERY WITH OTHER", "VAL_DATE": "2018-04-20T00:00:00.000Z", "WEBSITE": "http://www.med.navy.mil/sites/nhbeaufort/Pages/Welcome_Page.aspx", "STATE_ID": "NOT AVAILABLE", "ALT_NAME": "NOT AVAILABLE", "ST_FIPS": "45", "OWNER": "GOVERNMENT - FEDERAL", "TTL_STAFF": "-999", "BEDS": "-999", "TRAUMA": "NOT AVAILABLE", "HELIPAD": "N"}, {"X": "-102.5412902", "Y": "43.02367851", "OBJECTID": "8577", "ID": "4057770", "NAME": "PINE RIDGE HOSPITAL", "ADDRESS": "HWY 18 EAST", "CITY": "PINE RIDGE", "STATE": "SD", "ZIP": "57770", "ZIP4": "NOT AVAILABLE", "TELEPHONE": "(605) 747-2231", "TYPE": "CRITICAL ACCESS", "STATUS": "OPEN", "POPULATION": "45", "COUNTY": "SHANNON", "COUNTYFIPS": "46113", "COUNTRY": "USA", "LATITUDE": "43.02367851", "LONGITUDE": "-102.5412902", "NAICS_CODE": "622110", "NAICS_DESC": "GENERAL MEDICAL AND SURGICAL HOSPITALS", "SOURCE": "https://www.ihs.gov/", "SOURCEDATE": "2018-03-27T00:00:00.000Z", "VAL_METHOD": "IMAGERY WITH OTHER", "VAL_DATE": "2018-05-11T00:00:00.000Z", "WEBSITE": "https://www.ihs.gov/greatplains/healthcarefacilities/pineridge/", "STATE_ID": "NOT AVAILABLE", "ALT_NAME": "NOT AVAILABLE", "ST_FIPS": "46", "OWNER": "GOVERNMENT - FEDERAL", "TTL_STAFF": "-999", "BEDS": "45", "TRAUMA": "NOT AVAILABLE", "HELIPAD": "NOT AVAILABLE"}, {"X": "-96.47063294", "Y": "42.2325136", "OBJECTID": "8578", "ID": "4468071", "NAME": "WINNEBAGO HOSPITAL", "ADDRESS": "US HIGHWAY 77-75", "CITY": "WINNEBAGO", "STATE": "NE", "ZIP": "68071", "ZIP4": "NOT AVAILABLE", "TELEPHONE": "(402) 878-2231", "TYPE": "CRITICAL ACCESS", "STATUS": "OPEN", "POPULATION": "-999", "COUNTY": "THURSTON", "COUNTYFIPS": "31173", "COUNTRY": "USA", "LATITUDE": "42.2325136", "LONGITUDE": "-96.47063294", "NAICS_CODE": "622110", "NAICS_DESC": "GENERAL MEDICAL AND SURGICAL HOSPITALS", "SOURCE": "https://www.ihs.gov/", "SOURCEDATE": "2018-03-27T00:00:00.000Z", "VAL_METHOD": "IMAGERY WITH OTHER", "VAL_DATE": "2018-05-11T00:00:00.000Z", "WEBSITE": "http://www.ihs.gov/aberdeen/winnebago/", "STATE_ID": "NOT AVAILABLE", "ALT_NAME": "NOT AVAILABLE", "ST_FIPS": "31", "OWNER": "GOVERNMENT - FEDERAL", "TTL_STAFF": "-999", "BEDS": "-999", "TRAUMA": "NOT AVAILABLE", "HELIPAD": "NOT AVAILABLE"}, {"X": "-113.0197302", "Y": "48.5656912", "OBJECTID": "8579", "ID": "4659417", "NAME": "BLACKFEET COMMUNITY HOSPITAL", "ADDRESS": "760 HOSPITAL CIRCLE", "CITY": "BROWNING", "STATE": "MT", "ZIP": "59417", "ZIP4": "NOT AVAILABLE", "TELEPHONE": "(406) 338-6230", "TYPE": "CRITICAL ACCESS", "STATUS": "OPEN", "POPULATION": "-999", "COUNTY": "GLACIER", "COUNTYFIPS": "30035", "COUNTRY": "USA", "LATITUDE": "48.5656912", "LONGITUDE": "-113.0197302", "NAICS_CODE": "622110", "NAICS_DESC": "GENERAL MEDICAL AND SURGICAL HOSPITALS", "SOURCE": "https://www.ihs.gov/", "SOURCEDATE": "2018-03-27T00:00:00.000Z", "VAL_METHOD": "IMAGERY WITH OTHER", "VAL_DATE": "2018-05-11T00:00:00.000Z", "WEBSITE": "http://www.ihs.gov/billings/index.cfm?module=bao_su_blackfeet", "STATE_ID": "NOT AVAILABLE", "ALT_NAME": "NOT AVAILABLE", "ST_FIPS": "30", "OWNER": "GOVERNMENT - FEDERAL", "TTL_STAFF": "-999", "BEDS": "-999", "TRAUMA": "NOT AVAILABLE", "HELIPAD": "NOT AVAILABLE"}, {"X": "-96.77244571", "Y": "39.07919232", "OBJECTID": "8580", "ID": "8", "NAME": "IRWIN ARMY COMMUNITY HOSPITAL", "ADDRESS": "600 CAISSON HILL RD", "CITY": "FORT RILEY", "STATE": "KS", "ZIP": "66442", "ZIP4": "NOT AVAILABLE", "TELEPHONE": "NOT AVAILABLE", "TYPE": "MILITARY", "STATUS": "OPEN", "POPULATION": "-999", "COUNTY": "GEARY", "COUNTYFIPS": "20061", "COUNTRY": "USA", "LATITUDE": "39.07919232", "LONGITUDE": "-96.77244571", "NAICS_CODE": "622110", "NAICS_DESC": "GENERAL MEDICAL AND SURGICAL HOSPITALS", "SOURCE": "http://www.tricare.mil/mtf", "SOURCEDATE": "2018-02-28T00:00:00.000Z", "VAL_METHOD": "IMAGERY WITH OTHER", "VAL_DATE": "2018-04-20T00:00:00.000Z", "WEBSITE": "http://iach.amedd.army.mil/", "STATE_ID": "NOT AVAILABLE", "ALT_NAME": "NOT AVAILABLE", "ST_FIPS": "20", "OWNER": "GOVERNMENT - FEDERAL", "TTL_STAFF": "-999", "BEDS": "-999", "TRAUMA": "NOT AVAILABLE", "HELIPAD": "Y"}, {"X": "-80.68227993", "Y": "32.3894647", "OBJECTID": "8581", "ID": "11", "NAME": "NAVAL HOSPITAL BEAUFORT", "ADDRESS": "1 PINCKNEY BLVD", "CITY": "BEAUFORT", "STATE": "SC", "ZIP": "29902", "ZIP4": "NOT AVAILABLE", "TELEPHONE": "NOT AVAILABLE", "TYPE": "MILITARY", "STATUS": "OPEN", "POPULATION": "-999", "COUNTY": "BEAUFORT", "COUNTYFIPS": "45013", "COUNTRY": "USA", "LATITUDE": "32.3894647", "LONGITUDE": "-80.68227993", "NAICS_CODE": "622110", "NAICS_DESC": "GENERAL MEDICAL AND SURGICAL HOSPITALS", "SOURCE": "http://www.tricare.mil/mtf", "SOURCEDATE": "2018-02-28T00:00:00.000Z", "VAL_METHOD": "IMAGERY WITH OTHER", "VAL_DATE": "2018-04-20T00:00:00.000Z", "WEBSITE": "http://www.med.navy.mil/sites/nhbeaufort/Pages/Welcome_Page.aspx", "STATE_ID": "NOT AVAILABLE", "ALT_NAME": "NOT AVAILABLE", "ST_FIPS": "45", "OWNER": "GOVERNMENT - FEDERAL", "TTL_STAFF": "-999", "BEDS": "-999", "TRAUMA": "NOT AVAILABLE", "HELIPAD": "N"}, {"X": "-147.6622292", "Y": "64.82970024", "OBJECTID": "8582", "ID": "22", "NAME": "BASSETT ARMY COMMUNITY HOSPITAL", "ADDRESS": "4076 NEELY RD", "CITY": "FORT WAINWRIGHT", "STATE": "AK", "ZIP": "99703", "ZIP4": "NOT AVAILABLE", "TELEPHONE": "(907) 361-5172", "TYPE": "MILITARY", "STATUS": "OPEN", "POPULATION": "-999", "COUNTY": "FAIRBANKS NORTH STAR", "COUNTYFIPS": "2090", "COUNTRY": "USA", "LATITUDE": "64.82970024", "LONGITUDE": "-147.6622292", "NAICS_CODE": "622110", "NAICS_DESC": "GENERAL MEDICAL AND SURGICAL HOSPITALS", "SOURCE": "http://www.tricare.mil/mtf", "SOURCEDATE": "2018-02-28T00:00:00.000Z", "VAL_METHOD": "IMAGERY WITH OTHER", "VAL_DATE": "2018-04-20T00:00:00.000Z", "WEBSITE": "www.alaska.amedd.army.mil/", "STATE_ID": "NOT AVAILABLE", "ALT_NAME": "NOT AVAILABLE", "ST_FIPS": "2", "OWNER": "GOVERNMENT - FEDERAL", "TTL_STAFF": "-999", "BEDS": "-999", "TRAUMA": "NOT DESIGNATED", "HELIPAD": "Y"}, {"X": "-76.30576791", "Y": "36.84541393", "OBJECTID": "8583", "ID": "16", "NAME": "NAVAL MEDICAL CENTER PORTSMOUTH", "ADDRESS": "620 JOHN PAUL JONES CIRCLE", "CITY": "PORTSMOUTH", "STATE": "VA", "ZIP": "23708", "ZIP4": "NOT AVAILABLE", "TELEPHONE": "NOT AVAILABLE", "TYPE": "MILITARY", "STATUS": "OPEN", "POPULATION": "-999", "COUNTY": "PORTSMOUTH", "COUNTYFIPS": "51740", "COUNTRY": "USA", "LATITUDE": "36.84541393", "LONGITUDE": "-76.30576791", "NAICS_CODE": "622110", "NAICS_DESC": "GENERAL MEDICAL AND SURGICAL HOSPITALS", "SOURCE": "http://www.tricare.mil/mtf", "SOURCEDATE": "2018-02-28T00:00:00.000Z", "VAL_METHOD": "IMAGERY WITH OTHER", "VAL_DATE": "2018-04-20T00:00:00.000Z", "WEBSITE": "http://www.med.navy.mil/sites/NMCP2/Pages/Default.aspx", "STATE_ID": "NOT AVAILABLE", "ALT_NAME": "NOT AVAILABLE", "ST_FIPS": "51", "OWNER": "GOVERNMENT - FEDERAL", "TTL_STAFF": "-999", "BEDS": "-999", "TRAUMA": "NOT AVAILABLE", "HELIPAD": "Y"}, {"X": "-115.0492819", "Y": "36.24602701", "OBJECTID": "8584", "ID": "21", "NAME": "99TH MEDICAL GROUP - MIKE O'CALLAGHAN FEDERAL MEDICAL CENTER", "ADDRESS": "4700 LAS VEGAS BLVD N", "CITY": "NELLIS AFB", "STATE": "NV", "ZIP": "89191", "ZIP4": "NOT AVAILABLE", "TELEPHONE": "NOT AVAILABLE", "TYPE": "MILITARY", "STATUS": "OPEN", "POPULATION": "-999", "COUNTY": "CLARK", "COUNTYFIPS": "32003", "COUNTRY": "USA", "LATITUDE": "36.24602701", "LONGITUDE": "-115.0492819", "NAICS_CODE": "622110", "NAICS_DESC": "GENERAL MEDICAL AND SURGICAL HOSPITALS", "SOURCE": "http://www.tricare.mil/mtf", "SOURCEDATE": "2018-02-28T00:00:00.000Z", "VAL_METHOD": "IMAGERY WITH OTHER", "VAL_DATE": "2018-04-20T00:00:00.000Z", "WEBSITE": "http://www.nellis.af.mil/units/nellismedicalcenter/index.asp", "STATE_ID": "NOT AVAILABLE", "ALT_NAME": "NOT AVAILABLE", "ST_FIPS": "32", "OWNER": "GOVERNMENT - FEDERAL", "TTL_STAFF": "-999", "BEDS": "-999", "TRAUMA": "NOT AVAILABLE", "HELIPAD": "N"}, {"X": "-87.29861569", "Y": "30.39856995", "OBJECTID": "8585", "ID": "15", "NAME": "NAVAL HOSPITAL PENSACOLA", "ADDRESS": "6000 WEST HIGHWAY 98", "CITY": "PENSACOLA", "STATE": "FL", "ZIP": "32512", "ZIP4": "NOT AVAILABLE", "TELEPHONE": "(850) 505-6601", "TYPE": "MILITARY", "STATUS": "OPEN", "POPULATION": "-999", "COUNTY": "ESCAMBIA", "COUNTYFIPS": "12033", "COUNTRY": "USA", "LATITUDE": "30.39856995", "LONGITUDE": "-87.29861569", "NAICS_CODE": "622110", "NAICS_DESC": "GENERAL MEDICAL AND SURGICAL HOSPITALS", "SOURCE": "http://www.tricare.mil/mtf", "SOURCEDATE": "2018-02-28T00:00:00.000Z", "VAL_METHOD": "IMAGERY WITH OTHER", "VAL_DATE": "2018-04-20T00:00:00.000Z", "WEBSITE": "http://www.med.navy.mil/SITES/PCOLA/Pages/default.aspx", "STATE_ID": "NOT AVAILABLE", "ALT_NAME": "NOT AVAILABLE", "ST_FIPS": "12", "OWNER": "GOVERNMENT - FEDERAL", "TTL_STAFF": "-999", "BEDS": "-999", "TRAUMA": "NOT AVAILABLE", "HELIPAD": "Y"}, {"X": "-84.03740713", "Y": "39.80534785", "OBJECTID": "8586", "ID": "24", "NAME": "88TH MEDICAL GROUP - WRIGHT-PATTERSON AIR FORCE BASE MEDICAL CENTER", "ADDRESS": "4881 SUGAR MAPLE DR", "CITY": "WRIGHT PATTERSON AFB", "STATE": "OH", "ZIP": "45433", "ZIP4": "NOT AVAILABLE", "TELEPHONE": "NOT AVAILABLE", "TYPE": "MILITARY", "STATUS": "OPEN", "POPULATION": "-999", "COUNTY": "GREENE", "COUNTYFIPS": "39057", "COUNTRY": "USA", "LATITUDE": "39.80534785", "LONGITUDE": "-84.03740713", "NAICS_CODE": "622110", "NAICS_DESC": "GENERAL MEDICAL AND SURGICAL HOSPITALS", "SOURCE": "http://www.tricare.mil/mtf", "SOURCEDATE": "2018-02-28T00:00:00.000Z", "VAL_METHOD": "IMAGERY WITH OTHER", "VAL_DATE": "2018-04-20T00:00:00.000Z", "WEBSITE": "http://www.wpafb.af.mil/units/wpmc/index.asp", "STATE_ID": "NOT AVAILABLE", "ALT_NAME": "NOT AVAILABLE", "ST_FIPS": "39", "OWNER": "GOVERNMENT - FEDERAL", "TTL_STAFF": "-999", "BEDS": "-999", "TRAUMA": "NOT AVAILABLE", "HELIPAD": "N"}, {"X": "-147.6622292", "Y": "64.82970024", "OBJECTID": "8582", "ID": "22", "NAME": "BASSETT ARMY COMMUNITY HOSPITAL", "ADDRESS": "4076 NEELY RD", "CITY": "FORT WAINWRIGHT", "STATE": "AK", "ZIP": "99703", "ZIP4": "NOT AVAILABLE", "TELEPHONE": "(907) 361-5172", "TYPE": "MILITARY", "STATUS": "OPEN", "POPULATION": "-999", "COUNTY": "FAIRBANKS NORTH STAR", "COUNTYFIPS": "2090", "COUNTRY": "USA", "LATITUDE": "64.82970024", "LONGITUDE": "-147.6622292", "NAICS_CODE": "622110", "NAICS_DESC": "GENERAL MEDICAL AND SURGICAL HOSPITALS", "SOURCE": "http://www.tricare.mil/mtf", "SOURCEDATE": "2018-02-28T00:00:00.000Z", "VAL_METHOD": "IMAGERY WITH OTHER", "VAL_DATE": "2018-04-20T00:00:00.000Z", "WEBSITE": "www.alaska.amedd.army.mil/", "STATE_ID": "NOT AVAILABLE", "ALT_NAME": "NOT AVAILABLE", "ST_FIPS": "2", "OWNER": "GOVERNMENT - FEDERAL", "TTL_STAFF": "-999", "BEDS": "-999", "TRAUMA": "NOT DESIGNATED", "HELIPAD": "Y"}, {"X": "-95.6292859", "Y": "36.31610206", "OBJECTID": "8575", "ID": "3374017", "NAME": "CLAREMORE HOSPITAL", "ADDRESS": "101 S MOORE AVENUE (SOUTH MOORE & WILL ROGERS BLVD)", "CITY": "CLAREMORE", "STATE": "OK", "ZIP": "74017", "ZIP4": "NOT AVAILABLE", "TELEPHONE": "(918) 342-6200", "TYPE": "CRITICAL ACCESS", "STATUS": "OPEN", "POPULATION": "-999", "COUNTY": "ROGERS", "COUNTYFIPS": "40131", "COUNTRY": "USA", "LATITUDE": "36.31610206", "LONGITUDE": "-95.6292859", "NAICS_CODE": "622110", "NAICS_DESC": "GENERAL MEDICAL AND SURGICAL HOSPITALS", "SOURCE": "https://www.ihs.gov/", "SOURCEDATE": "2018-03-27T00:00:00.000Z", "VAL_METHOD": "IMAGERY WITH OTHER", "VAL_DATE": "2018-05-11T00:00:00.000Z", "WEBSITE": "http://www.ihs.gov/oklahoma/index.cfm?module=dsp_okao_su_claremore", "STATE_ID": "NOT AVAILABLE", "ALT_NAME": "NOT AVAILABLE", "ST_FIPS": "40", "OWNER": "GOVERNMENT - FEDERAL", "TTL_STAFF": "-999", "BEDS": "-999", "TRAUMA": "NOT AVAILABLE", "HELIPAD": "NOT AVAILABLE"}, {"X": "-98.41460698", "Y": "34.6523867", "OBJECTID": "8587", "ID": "34", "NAME": "REYNOLDS ARMY COMMUNITY HOSPITAL", "ADDRESS": "4301 WILSON ST", "CITY": "FORT SILL", "STATE": "OK", "ZIP": "73503", "ZIP4": "NOT AVAILABLE", "TELEPHONE": "NOT AVAILABLE", "TYPE": "MILITARY", "STATUS": "OPEN", "POPULATION": "-999", "COUNTY": "COMANCHE", "COUNTYFIPS": "40031", "COUNTRY": "USA", "LATITUDE": "34.6523867", "LONGITUDE": "-98.41460698", "NAICS_CODE": "622110", "NAICS_DESC": "GENERAL MEDICAL AND SURGICAL HOSPITALS", "SOURCE": "http://www.tricare.mil/mtf", "SOURCEDATE": "2018-02-28T00:00:00.000Z", "VAL_METHOD": "IMAGERY WITH OTHER", "VAL_DATE": "2018-04-20T00:00:00.000Z", "WEBSITE": "http://www.rach.sill.amedd.army.mil/", "STATE_ID": "NOT AVAILABLE", "ALT_NAME": "NOT AVAILABLE", "ST_FIPS": "40", "OWNER": "GOVERNMENT - FEDERAL", "TTL_STAFF": "-999", "BEDS": "-999", "TRAUMA": "NOT AVAILABLE", "HELIPAD": "Y"}, {"X": "-77.14368028", "Y": "38.70560252", "OBJECTID": "8588", "ID": "28", "NAME": "FORT BELVOIR COMMUNITY HOSPITAL", "ADDRESS": "9300 DEWITT LOOP", "CITY": "FORT BELVOIR", "STATE": "VA", "ZIP": "22060", "ZIP4": "NOT AVAILABLE", "TELEPHONE": "NOT AVAILABLE", "TYPE": "MILITARY", "STATUS": "OPEN", "POPULATION": "-999", "COUNTY": "FAIRFAX", "COUNTYFIPS": "51059", "COUNTRY": "USA", "LATITUDE": "38.70560252", "LONGITUDE": "-77.14368028", "NAICS_CODE": "622110", "NAICS_DESC": "GENERAL MEDICAL AND SURGICAL HOSPITALS", "SOURCE": "http://www.tricare.mil/mtf", "SOURCEDATE": "2018-02-28T00:00:00.000Z", "VAL_METHOD": "IMAGERY WITH OTHER", "VAL_DATE": "2018-04-20T00:00:00.000Z", "WEBSITE": "www.fbch.capmed.mil/", "STATE_ID": "NOT AVAILABLE", "ALT_NAME": "NOT AVAILABLE", "ST_FIPS": "51", "OWNER": "GOVERNMENT - FEDERAL", "TTL_STAFF": "-999", "BEDS": "-999", "TRAUMA": "NOT AVAILABLE", "HELIPAD": "Y"}, {"X": "-82.88184334", "Y": "40.0271427", "OBJECTID": "8498", "ID": "129043230", "NAME": "WOODS AT PARKSIDE,THE", "ADDRESS": "349 OLDE RIDENOUR ROAD", "CITY": "COLUMBUS", "STATE": "OH", "ZIP": "43230", "ZIP4": "NOT AVAILABLE", "TELEPHONE": "(614) 471-2552", "TYPE": "SPECIAL", "STATUS": "OPEN", "POPULATION": "50", "COUNTY": "FRANKLIN", "COUNTYFIPS": "39049", "COUNTRY": "USA", "LATITUDE": "40.0271427", "LONGITUDE": "-82.88184334", "NAICS_CODE": "622210", "NAICS_DESC": "HOSPITALS, SUBSTANCE ABUSE", "SOURCE": "http://publicapps.odh.ohio.gov/EID/Default.aspx", "SOURCEDATE": "2018-03-15T00:00:00.000Z", "VAL_METHOD": "IMAGERY WITH OTHER", "VAL_DATE": "2018-04-26T00:00:00.000Z", "WEBSITE": "http://www.thewoodsatparkside.com/", "STATE_ID": "1815", "ALT_NAME": "NOT AVAILABLE", "ST_FIPS": "39", "OWNER": "PROPRIETARY", "TTL_STAFF": "-999", "BEDS": "50", "TRAUMA": "NOT AVAILABLE", "HELIPAD": "NOT AVAILABLE"}, {"X": "-84.16802733", "Y": "39.77424249", "OBJECTID": "8499", "ID": "130045404", "NAME": "DAYTON CHILDREN'S HOSPITAL", "ADDRESS": "ONE CHILDRENS PLAZA", "CITY": "DAYTON", "STATE": "OH", "ZIP": "45404", "ZIP4": "NOT AVAILABLE", "TELEPHONE": "(937) 641-3300", "TYPE": "CHILDREN", "STATUS": "OPEN", "POPULATION": "155", "COUNTY": "MONTGOMERY", "COUNTYFIPS": "39113", "COUNTRY": "USA", "LATITUDE": "39.77424249", "LONGITUDE": "-84.16802733", "NAICS_CODE": "622310", "NAICS_DESC": "CHILDREN'S HOSPITALS, SPECIALTY (EXCEPT PSYCHIATRIC, SUBSTANCE ABUSE)", "SOURCE": "http://publicapps.odh.ohio.gov/EID/Default.aspx", "SOURCEDATE": "2018-03-15T00:00:00.000Z", "VAL_METHOD": "IMAGERY WITH OTHER", "VAL_DATE": "2018-04-26T00:00:00.000Z", "WEBSITE": "http://www.childrensdayton.org/cms/home/index.html", "STATE_ID": "1411", "ALT_NAME": "NOT AVAILABLE", "ST_FIPS": "39", "OWNER": "NON-PROFIT", "TTL_STAFF": "-999", "BEDS": "155", "TRAUMA": "PEDIATRIC LEVEL II", "HELIPAD": "Y"}, {"X": "-84.19939762", "Y": "39.74773987", "OBJECTID": "8501", "ID": "129845417", "NAME": "HAVEN BEHAVIORAL SENIOR CARE OF DAYTON", "ADDRESS": "ONE ELIZABETH PLACE,E3 SUITE A", "CITY": "DAYTON", "STATE": "OH", "ZIP": "45417", "ZIP4": "NOT AVAILABLE", "TELEPHONE": "(615) 393-8879", "TYPE": "PSYCHIATRIC", "STATUS": "OPEN", "POPULATION": "32", "COUNTY": "MONTGOMERY", "COUNTYFIPS": "39113", "COUNTRY": "USA", "LATITUDE": "39.74773987", "LONGITUDE": "-84.19939762", "NAICS_CODE": "622210", "NAICS_DESC": "HOSPITALS, PSYCHIATRIC (EXCEPT CONVALESCENT)", "SOURCE": "http://publicapps.odh.ohio.gov/EID/Default.aspx", "SOURCEDATE": "2018-03-15T00:00:00.000Z", "VAL_METHOD": "IMAGERY WITH OTHER", "VAL_DATE": "2018-04-26T00:00:00.000Z", "WEBSITE": "https://dayton.havenbehavioral.com/", "STATE_ID": "1506", "ALT_NAME": "NOT AVAILABLE", "ST_FIPS": "39", "OWNER": "PROPRIETARY", "TTL_STAFF": "-999", "BEDS": "32", "TRAUMA": "NOT AVAILABLE", "HELIPAD": "NOT AVAILABLE"}, {"X": "-96.92709569", "Y": "35.29726161", "OBJECTID": "8502", "ID": "130774801", "NAME": "CHG CORNERSTONE HOSPITAL OF OKLAHOMA", "ADDRESS": "1900 GORDON COOPER DRIVE,2ND FLOOR", "CITY": "SHAWNEE", "STATE": "OK", "ZIP": "74801", "ZIP4": "NOT AVAILABLE", "TELEPHONE": "(405) 395-5800", "TYPE": "LONG TERM CARE", "STATUS": "OPEN", "POPULATION": "34", "COUNTY": "POTTAWATOMIE", "COUNTYFIPS": "40125", "COUNTRY": "USA", "LATITUDE": "35.29726161", "LONGITUDE": "-96.92709569", "NAICS_CODE": "622310", "NAICS_DESC": "EXTENDED CARE HOSPITALS (EXCEPT MENTAL, SUBSTANCE ABUSE)", "SOURCE": "https://www.ok.gov/health/Protective_Health/Medical_Facilities_Service/", "SOURCEDATE": "2018-03-20T00:00:00.000Z", "VAL_METHOD": "IMAGERY WITH OTHER", "VAL_DATE": "2018-04-20T00:00:00.000Z", "WEBSITE": "http://www.chghospitals.com/shawnee/", "STATE_ID": "2363", "ALT_NAME": "SOLARA HOSPITAL SHAWNEE", "ST_FIPS": "40", "OWNER": "PROPRIETARY", "TTL_STAFF": "-999", "BEDS": "34", "TRAUMA": "NOT AVAILABLE", "HELIPAD": "NOT AVAILABLE"}, {"X": "-96.2237315", "Y": "34.53934684", "OBJECTID": "8503", "ID": "131074538", "NAME": "MARY HURLEY HOSPITAL", "ADDRESS": "6 NORTH COVINGTON AVENUE", "CITY": "COALGATE", "STATE": "OK", "ZIP": "74538", "ZIP4": "NOT AVAILABLE", "TELEPHONE": "(580) 927-2327", "TYPE": "GENERAL ACUTE CARE", "STATUS": "OPEN", "POPULATION": "20", "COUNTY": "COAL", "COUNTYFIPS": "40029", "COUNTRY": "USA", "LATITUDE": "34.53934684", "LONGITUDE": "-96.2237315", "NAICS_CODE": "622110", "NAICS_DESC": "GENERAL MEDICAL AND SURGICAL HOSPITALS", "SOURCE": "https://www.ok.gov/health/Protective_Health/Medical_Facilities_Service/", "SOURCEDATE": "2018-03-20T00:00:00.000Z", "VAL_METHOD": "IMAGERY WITH OTHER", "VAL_DATE": "2018-04-20T00:00:00.000Z", "WEBSITE": "http://www.ccghospital.com/Hospital/", "STATE_ID": "2201", "ALT_NAME": "COAL COUNTY GENERAL HOSPITAL", "ST_FIPS": "40", "OWNER": "NON-PROFIT", "TTL_STAFF": "-999", "BEDS": "20", "TRAUMA": "LEVEL IV", "HELIPAD": "Y"}, {"X": "-101.2940853", "Y": "48.23222596", "OBJECTID": "8504", "ID": "5258701", "NAME": "TRINITY HOSPITALS", "ADDRESS": "1 W BURDICK EXPY", "CITY": "MINOT", "STATE": "ND", "ZIP": "58701", "ZIP4": "NOT AVAILABLE", "TELEPHONE": "(701) 857-5000", "TYPE": "GENERAL ACUTE CARE", "STATUS": "OPEN", "POPULATION": "251", "COUNTY": "WARD", "COUNTYFIPS": "38101", "COUNTRY": "USA", "LATITUDE": "48.23222596", "LONGITUDE": "-101.2940853", "NAICS_CODE": "622110", "NAICS_DESC": "GENERAL MEDICAL AND SURGICAL HOSPITALS", "SOURCE": "http://www.ndhealth.gov/hf/North_Dakota_Hospitals_Critical_access.htm", "SOURCEDATE": "2017-09-11T00:00:00.000Z", "VAL_METHOD": "IMAGERY", "VAL_DATE": "2017-10-02T00:00:00.000Z", "WEBSITE": "http://www.trinityhealth.org", "STATE_ID": "5055A", "ALT_NAME": "NOT AVAILABLE", "ST_FIPS": "38", "OWNER": "NON-PROFIT", "TTL_STAFF": "-999", "BEDS": "251", "TRAUMA": "LEVEL II", "HELIPAD": "Y"}, {"X": "-80.23107621", "Y": "36.418068", "OBJECTID": "8505", "ID": "10527016", "NAME": "LIFEBRITE COMMUNITY HOSPITAL OF STOKES", "ADDRESS": "1570 NC 8 & 89 HWY NORTH", "CITY": "DANBURY", "STATE": "NC", "ZIP": "27016", "ZIP4": "NOT AVAILABLE", "TELEPHONE": "(336) 593-2831", "TYPE": "GENERAL ACUTE CARE", "STATUS": "OPEN", "POPULATION": "93", "COUNTY": "STOKES", "COUNTYFIPS": "37169", "COUNTRY": "USA", "LATITUDE": "36.418068", "LONGITUDE": "-80.23107621", "NAICS_CODE": "622110", "NAICS_DESC": "GENERAL MEDICAL AND SURGICAL HOSPITALS", "SOURCE": "https://www2.ncdhhs.gov/dhsr/reports.htm", "SOURCEDATE": "2017-09-28T00:00:00.000Z", "VAL_METHOD": "IMAGERY WITH OTHER", "VAL_DATE": "2017-11-09T00:00:00.000Z", "WEBSITE": "http://lifebritestokes.com/", "STATE_ID": "NOT AVAILABLE", "ALT_NAME": "PIONEER COMMUNITY HOSPITAL OF STOKES", "ST_FIPS": "37", "OWNER": "PROPRIETARY", "TTL_STAFF": "-999", "BEDS": "93", "TRAUMA": "NOT AVAILABLE", "HELIPAD": "NOT AVAILABLE"}, {"X": "-95.44068702", "Y": "30.0142879", "OBJECTID": "8506", "ID": "77677090", "NAME": "PROVIDENCE HOSPITAL OF NORTH HOUSTON LLC", "ADDRESS": "16750 RED OAK DR", "CITY": "HOUSTON", "STATE": "TX", "ZIP": "77090", "ZIP4": "NOT AVAILABLE", "TELEPHONE": "(281) 453-7110", "TYPE": "GENERAL ACUTE CARE", "STATUS": "OPEN", "POPULATION": "16", "COUNTY": "HARRIS", "COUNTYFIPS": "48021", "COUNTRY": "USA", "LATITUDE": "30.0142879", "LONGITUDE": "-95.44068702", "NAICS_CODE": "622110", "NAICS_DESC": "GENERAL MEDICAL AND SURGICAL HOSPITALS", "SOURCE": "http://www.dshs.texas.gov/facilities/find-a-licensee.aspx", "SOURCEDATE": "2017-12-14T00:00:00.000Z", "VAL_METHOD": "IMAGERY WITH OTHER", "VAL_DATE": "2017-12-18T00:00:00.000Z", "WEBSITE": "http://phnh.net/", "STATE_ID": "NOT AVAILABLE", "ALT_NAME": "NOT AVAILABLE", "ST_FIPS": "48", "OWNER": "PROPRIETARY", "TTL_STAFF": "-999", "BEDS": "16", "TRAUMA": "NOT AVAILABLE", "HELIPAD": "NOT AVAILABLE"}, {"X": "-98.22573011", "Y": "26.18699237", "OBJECTID": "8507", "ID": "78178503", "NAME": "MCCALLEN MEDICAL CENTER", "ADDRESS": "301 WEST EXPRESSWAY 83", "CITY": "MCALLEN", "STATE": "TX", "ZIP": "78503", "ZIP4": "NOT AVAILABLE", "TELEPHONE": "(956) 632-4000", "TYPE": "GENERAL ACUTE CARE", "STATUS": "OPEN", "POPULATION": "441", "COUNTY": "HIDALGO", "COUNTYFIPS": "48215", "COUNTRY": "USA", "LATITUDE": "26.18699237", "LONGITUDE": "-98.22573011", "NAICS_CODE": "622110", "NAICS_DESC": "GENERAL MEDICAL AND SURGICAL HOSPITALS", "SOURCE": "http://www.dshs.texas.gov/facilities/find-a-licensee.aspx", "SOURCEDATE": "2017-12-14T00:00:00.000Z", "VAL_METHOD": "IMAGERY WITH OTHER", "VAL_DATE": "2017-12-18T00:00:00.000Z", "WEBSITE": "http://www.mcallenmedicalcenter.com/", "STATE_ID": "NOT AVAILABLE", "ALT_NAME": "NOT AVAILABLE", "ST_FIPS": "48", "OWNER": "PROPRIETARY", "TTL_STAFF": "-999", "BEDS": "441", "TRAUMA": "LEVEL III", "HELIPAD": "Y"}, {"X": "-96.78500526", "Y": "46.86919521", "OBJECTID": "8508", "ID": "165358103", "NAME": "PRAIRIE SAINT JOHN'S", "ADDRESS": "510 4TH STREET SOUTH", "CITY": "FARGO", "STATE": "ND", "ZIP": "58103", "ZIP4": "1914", "TELEPHONE": "(701) 476-7200", "TYPE": "PSYCHIATRIC", "STATUS": "OPEN", "POPULATION": "110", "COUNTY": "CASS", "COUNTYFIPS": "38017", "COUNTRY": "USA", "LATITUDE": "46.86919521", "LONGITUDE": "-96.78500526", "NAICS_CODE": "622210", "NAICS_DESC": "HOSPITALS, PSYCHIATRIC (EXCEPT CONVALESCENT)", "SOURCE": "http://www.ndhealth.gov/hf/North_Dakota_Hospitals_Critical_access.htm", "SOURCEDATE": "2017-09-11T00:00:00.000Z", "VAL_METHOD": "IMAGERY WITH OTHER", "VAL_DATE": "2017-10-02T00:00:00.000Z", "WEBSITE": "http://prairie-stjohns.com/", "STATE_ID": "5063A", "ALT_NAME": "NOT AVAILABLE", "ST_FIPS": "38", "OWNER": "PROPRIETARY", "TTL_STAFF": "-999", "BEDS": "110", "TRAUMA": "NOT AVAILABLE", "HELIPAD": "NOT AVAILABLE"}, {"X": "-98.16693865", "Y": "33.23066769", "OBJECTID": "8509", "ID": "78676458", "NAME": "FAITH COMMUNITY HOSPITAL", "ADDRESS": "215 CHISHOLM TRAIL", "CITY": "JACKSBORO", "STATE": "TX", "ZIP": "76458", "ZIP4": "NOT AVAILABLE", "TELEPHONE": "(940) 567-6633", "TYPE": "GENERAL ACUTE CARE", "STATUS": "OPEN", "POPULATION": "17", "COUNTY": "JACK", "COUNTYFIPS": "48237", "COUNTRY": "USA", "LATITUDE": "33.23066769", "LONGITUDE": "-98.16693865", "NAICS_CODE": "622110", "NAICS_DESC": "GENERAL MEDICAL AND SURGICAL HOSPITALS", "SOURCE": "http://www.dshs.texas.gov/facilities/find-a-licensee.aspx", "SOURCEDATE": "2017-12-14T00:00:00.000Z", "VAL_METHOD": "IMAGERY", "VAL_DATE": "2017-12-18T00:00:00.000Z", "WEBSITE": "https://www.fchtexas.com", "STATE_ID": "NOT AVAILABLE", "ALT_NAME": "NOT AVAILABLE", "ST_FIPS": "48", "OWNER": "PROPRIETARY", "TTL_STAFF": "-999", "BEDS": "17", "TRAUMA": "LEVEL IV", "HELIPAD": "Y"}, {"X": "-101.9019483", "Y": "33.57339136", "OBJECTID": "8510", "ID": "78979410", "NAME": "COVENANT MEDICAL CENTER - LAKESIDE", "ADDRESS": "4000 24TH STREET", "CITY": "LUBBOCK", "STATE": "TX", "ZIP": "79410", "ZIP4": "NOT AVAILABLE", "TELEPHONE": "(806) 725-0536", "TYPE": "GENERAL ACUTE CARE", "STATUS": "OPEN", "POPULATION": "196", "COUNTY": "LUBBOCK", "COUNTYFIPS": "48303", "COUNTRY": "USA", "LATITUDE": "33.57339136", "LONGITUDE": "-101.9019483", "NAICS_CODE": "622110", "NAICS_DESC": "GENERAL MEDICAL AND SURGICAL HOSPITALS", "SOURCE": "http://www.dshs.texas.gov/facilities/find-a-licensee.aspx", "SOURCEDATE": "2017-12-14T00:00:00.000Z", "VAL_METHOD": "IMAGERY", "VAL_DATE": "2017-12-18T00:00:00.000Z", "WEBSITE": "http://www.covenanthealth.org/", "STATE_ID": "NOT AVAILABLE", "ALT_NAME": "NOT AVAILABLE", "ST_FIPS": "48", "OWNER": "NON-PROFIT", "TTL_STAFF": "-999", "BEDS": "196", "TRAUMA": "NOT AVAILABLE", "HELIPAD": "NOT AVAILABLE"}, {"X": "-95.44302258", "Y": "30.13090069", "OBJECTID": "8511", "ID": "79277386", "NAME": "WOODLANDS SPECIALTY HOSPITAL PLLC", "ADDRESS": "25440 I 45 NORTH", "CITY": "THE WOODLANDS", "STATE": "TX", "ZIP": "77386", "ZIP4": "NOT AVAILABLE", "TELEPHONE": "(281) 602-8160", "TYPE": "GENERAL ACUTE CARE", "STATUS": "OPEN", "POPULATION": "6", "COUNTY": "MONTGOMERY", "COUNTYFIPS": "48339", "COUNTRY": "USA", "LATITUDE": "30.13090069", "LONGITUDE": "-95.44302258", "NAICS_CODE": "622110", "NAICS_DESC": "GENERAL MEDICAL AND SURGICAL HOSPITALS", "SOURCE": "http://www.dshs.texas.gov/facilities/find-a-licensee.aspx", "SOURCEDATE": "2017-12-14T00:00:00.000Z", "VAL_METHOD": "IMAGERY WITH OTHER", "VAL_DATE": "2017-12-18T00:00:00.000Z", "WEBSITE": "http://woodlandsspecialtyhospital.com/", "STATE_ID": "NOT AVAILABLE", "ALT_NAME": "NOT AVAILABLE", "ST_FIPS": "48", "OWNER": "PROPRIETARY", "TTL_STAFF": "-999", "BEDS": "6", "TRAUMA": "NOT AVAILABLE", "HELIPAD": "N"}, {"X": "-97.39474791", "Y": "27.77809368", "OBJECTID": "8512", "ID": "79478404", "NAME": "CHRISTUS SPOHN HOSPITAL CORPUS CHRISTI SHORELINE", "ADDRESS": "600 ELIZABETH STREET", "CITY": "CORPUS CHRISTI", "STATE": "TX", "ZIP": "78404", "ZIP4": "NOT AVAILABLE", "TELEPHONE": "(361) 902-4690", "TYPE": "GENERAL ACUTE CARE", "STATUS": "OPEN", "POPULATION": "557", "COUNTY": "NUECES", "COUNTYFIPS": "48355", "COUNTRY": "USA", "LATITUDE": "27.77809368", "LONGITUDE": "-97.39474791", "NAICS_CODE": "622110", "NAICS_DESC": "GENERAL MEDICAL AND SURGICAL HOSPITALS", "SOURCE": "http://www.dshs.texas.gov/facilities/find-a-licensee.aspx", "SOURCEDATE": "2017-12-14T00:00:00.000Z", "VAL_METHOD": "IMAGERY WITH OTHER", "VAL_DATE": "2017-12-18T00:00:00.000Z", "WEBSITE": "http://www.christusspohn.org/Shoreline", "STATE_ID": "NOT AVAILABLE", "ALT_NAME": "NOT AVAILABLE", "ST_FIPS": "48", "OWNER": "NON-PROFIT", "TTL_STAFF": "-999", "BEDS": "557", "TRAUMA": "NOT AVAILABLE", "HELIPAD": "Y"}, {"X": "-97.63542316", "Y": "27.85491733", "OBJECTID": "8513", "ID": "79578410", "NAME": "THE CORPUS CHRISTI MEDICAL CENTER - NORTHWEST", "ADDRESS": "13725 NORTHWEST BLVD", "CITY": "CORPUS CHRISTI", "STATE": "TX", "ZIP": "78410", "ZIP4": "NOT AVAILABLE", "TELEPHONE": "(361) 767-4300", "TYPE": "GENERAL ACUTE CARE", "STATUS": "OPEN", "POPULATION": "89", "COUNTY": "NUECES", "COUNTYFIPS": "48355", "COUNTRY": "USA", "LATITUDE": "27.85491733", "LONGITUDE": "-97.63542317", "NAICS_CODE": "622110", "NAICS_DESC": "GENERAL MEDICAL AND SURGICAL HOSPITALS", "SOURCE": "http://www.dshs.texas.gov/facilities/find-a-licensee.aspx", "SOURCEDATE": "2017-12-14T00:00:00.000Z", "VAL_METHOD": "IMAGERY", "VAL_DATE": "2017-12-18T00:00:00.000Z", "WEBSITE": "http://ccmedicalcenter.com/", "STATE_ID": "NOT AVAILABLE", "ALT_NAME": "NOT AVAILABLE", "ST_FIPS": "48", "OWNER": "PROPRIETARY", "TTL_STAFF": "-999", "BEDS": "89", "TRAUMA": "NOT AVAILABLE", "HELIPAD": "Y"}, {"X": "-101.4610176", "Y": "31.20401254", "OBJECTID": "8514", "ID": "80076932", "NAME": "REAGAN MEMORIAL HOSPITAL", "ADDRESS": "1300 N MAIN AVE", "CITY": "BIG LAKE", "STATE": "TX", "ZIP": "76932", "ZIP4": "NOT AVAILABLE", "TELEPHONE": "(325) 884-2561", "TYPE": "GENERAL ACUTE CARE", "STATUS": "OPEN", "POPULATION": "7", "COUNTY": "REAGAN", "COUNTYFIPS": "48383", "COUNTRY": "USA", "LATITUDE": "31.20401254", "LONGITUDE": "-101.4610176", "NAICS_CODE": "622110", "NAICS_DESC": "GENERAL MEDICAL AND SURGICAL HOSPITALS", "SOURCE": "http://www.dshs.texas.gov/facilities/find-a-licensee.aspx", "SOURCEDATE": "2017-12-14T00:00:00.000Z", "VAL_METHOD": "IMAGERY", "VAL_DATE": "2017-12-18T00:00:00.000Z", "WEBSITE": "http://reaganhealth.com/", "STATE_ID": "NOT AVAILABLE", "ALT_NAME": "NOT AVAILABLE", "ST_FIPS": "48", "OWNER": "GOVERNMENT - DISTRICT/AUTHORITY", "TTL_STAFF": "-999", "BEDS": "7", "TRAUMA": "NOT AVAILABLE", "HELIPAD": "NOT AVAILABLE"}, {"X": "-96.44469769", "Y": "32.9140952", "OBJECTID": "8515", "ID": "80175087", "NAME": "BAYLOR EMERGENCY MEDICAL CENTER", "ADDRESS": "1975 ALPHA,SUITE 100", "CITY": "ROCKWALL", "STATE": "TX", "ZIP": "75087", "ZIP4": "NOT AVAILABLE", "TELEPHONE": "(214) 294-6200", "TYPE": "GENERAL ACUTE CARE", "STATUS": "OPEN", "POPULATION": "8", "COUNTY": "ROCKWALL", "COUNTYFIPS": "48397", "COUNTRY": "USA", "LATITUDE": "32.9140952", "LONGITUDE": "-96.44469769", "NAICS_CODE": "622110", "NAICS_DESC": "GENERAL MEDICAL AND SURGICAL HOSPITALS", "SOURCE": "http://www.dshs.texas.gov/facilities/find-a-licensee.aspx", "SOURCEDATE": "2017-12-14T00:00:00.000Z", "VAL_METHOD": "IMAGERY", "VAL_DATE": "2017-12-18T00:00:00.000Z", "WEBSITE": "http://www.bayloremc.com/rockwall/", "STATE_ID": "NOT AVAILABLE", "ALT_NAME": "NOT AVAILABLE", "ST_FIPS": "48", "OWNER": "PROPRIETARY", "TTL_STAFF": "-999", "BEDS": "8", "TRAUMA": "NOT AVAILABLE", "HELIPAD": "NOT AVAILABLE"}, {"ID": "35501", "FuelTypeCode": "ELEC", "StationName": "Bay Park Towers", "StreetAddress": "3301 NE 5th Ave", "City": "Miami", "State": "FL", "ZIP": "33137", "StatusCode": "E", "ExpectedDate": "", "GroupsWithAccessCode": "Public", "GeocodeStatus": "GPS", "UpdatedAt": "12/21/2021 12:00:00 AM", "OwnerTypeCode": "", "OpenDate": "11/14/2020 12:00:00 AM", "AccessCode": "public", "FacilityType": "", "EVPricing": "", "X": "-80.186286", "Y": "25.808021", "GEOID": "12086", "County": "Miami-Dade County, Florida", "Population": "2699428", "Location": "POINT (-80.186286 25.808021)"}, {"ID": "16924", "FuelTypeCode": "ELEC", "StationName": "NKU-HIC NKU C-LOT 1", "StreetAddress": "Kenton Dr", "City": "Newport", "State": "KY", "ZIP": "41076", "StatusCode": "E", "ExpectedDate": "", "GroupsWithAccessCode": "Public", "GeocodeStatus": "GPS", "UpdatedAt": "12/21/2021 12:00:00 AM", "OwnerTypeCode": "", "OpenDate": "09/25/2018 12:00:00 AM", "AccessCode": "public", "FacilityType": "", "EVPricing": "", "X": "-84.466867", "Y": "39.031566", "GEOID": "21037", "County": "Campbell County, Kentucky", "Population": "92861", "Location": "POINT (-84.466867 39.031566)"}, {"ID": "15815", "FuelTypeCode": "ELEC", "StationName": "Pine City", "StreetAddress": "800 Main St S", "City": "Pine City", "State": "MN", "ZIP": "55063", "StatusCode": "E", "ExpectedDate": "", "GroupsWithAccessCode": "Public", "GeocodeStatus": "GPS", "UpdatedAt": "12/21/2021 12:00:00 AM", "OwnerTypeCode": "", "OpenDate": "09/01/2015 12:00:00 AM", "AccessCode": "public", "FacilityType": "", "EVPricing": "", "X": "-92.970185", "Y": "45.820923", "GEOID": "27115", "County": "Pine County, Minnesota", "Population": "29223", "Location": "POINT (-92.970185 45.820923)"}, {"ID": "4760", "FuelTypeCode": "ELEC", "StationName": "Four Seasons Resort Hualalai", "StreetAddress": "72-100 Kaupulehu Drive", "City": "Kailua-Kona", "State": "HI", "ZIP": "96740", "StatusCode": "E", "ExpectedDate": "", "GroupsWithAccessCode": "Public", "GeocodeStatus": "GPS", "UpdatedAt": "12/21/2021 12:00:00 AM", "OwnerTypeCode": "", "OpenDate": "01/31/2012 12:00:00 AM", "AccessCode": "public", "FacilityType": "", "EVPricing": "", "X": "-159.788556", "Y": "21.863217", "GEOID": "", "County": "", "Population": "", "Location": "POINT (-159.788556 21.863217)"}, {"ID": "25232", "FuelTypeCode": "ELEC", "StationName": "AGPM", "StreetAddress": "501 N. Magnolia Ave.", "City": "Orlando", "State": "FL", "ZIP": "32801", "StatusCode": "E", "ExpectedDate": "", "GroupsWithAccessCode": "Public", "GeocodeStatus": "GPS", "UpdatedAt": "12/21/2021 12:00:00 AM", "OwnerTypeCode": "", "OpenDate": "07/04/2019 12:00:00 AM", "AccessCode": "public", "FacilityType": "", "EVPricing": "FREE", "X": "-81.3764722", "Y": "28.5496368", "GEOID": "12095", "County": "Orange County, Florida", "Population": "1349746", "Location": "POINT (-81.3764722 28.5496368)"}, {"ID": "24092", "FuelTypeCode": "ELEC", "StationName": "WCL SOUTHWEST", "StreetAddress": "2039 W 4000 S", "City": "Roy", "State": "UT", "ZIP": "84067", "StatusCode": "E", "ExpectedDate": "", "GroupsWithAccessCode": "Public", "GeocodeStatus": "GPS", "UpdatedAt": "12/21/2021 12:00:00 AM", "OwnerTypeCode": "", "OpenDate": "09/25/2019 12:00:00 AM", "AccessCode": "public", "FacilityType": "", "EVPricing": "", "X": "-112.029171", "Y": "41.190091", "GEOID": "49057", "County": "Weber County, Utah", "Population": "251498", "Location": "POINT (-112.029171 41.190091)"}, {"ID": "32901", "FuelTypeCode": "ELEC", "StationName": "BOCC BOCC EV", "StreetAddress": "2 E Main St", "City": "Berryville", "State": "VA", "ZIP": "22630", "StatusCode": "E", "ExpectedDate": "", "GroupsWithAccessCode": "Public", "GeocodeStatus": "GPS", "UpdatedAt": "12/21/2021 12:00:00 AM", "OwnerTypeCode": "", "OpenDate": "06/19/2020 12:00:00 AM", "AccessCode": "public", "FacilityType": "", "EVPricing": "", "X": "-77.980543", "Y": "39.150918", "GEOID": "51043", "County": "Clarke County, Virginia", "Population": "14423", "Location": "POINT (-77.980543 39.150918)"}, {"ID": "33255", "FuelTypeCode": "ELEC", "StationName": "PITTSFIELD TWP WEST", "StreetAddress": "6201 US-12", "City": "Saline", "State": "MI", "ZIP": "48176", "StatusCode": "E", "ExpectedDate": "", "GroupsWithAccessCode": "Public", "GeocodeStatus": "GPS", "UpdatedAt": "12/21/2021 12:00:00 AM", "OwnerTypeCode": "", "OpenDate": "07/10/2020 12:00:00 AM", "AccessCode": "public", "FacilityType": "", "EVPricing": "", "X": "-83.700732", "Y": "42.197611", "GEOID": "26161", "County": "Washtenaw County, Michigan", "Population": "367000", "Location": "POINT (-83.700732 42.197611)"}, {"ID": "51747", "FuelTypeCode": "ELEC", "StationName": "STORE STORE", "StreetAddress": "50711 OR-62", "City": "Fort Klamath", "State": "OR", "ZIP": "97626", "StatusCode": "E", "ExpectedDate": "", "GroupsWithAccessCode": "Public", "GeocodeStatus": "GPS", "UpdatedAt": "12/21/2021 12:00:00 AM", "OwnerTypeCode": "", "OpenDate": "05/15/2021 12:00:00 AM", "AccessCode": "public", "FacilityType": "", "EVPricing": "", "X": "-121.973057", "Y": "42.684988", "GEOID": "41035", "County": "Klamath County, Oregon", "Population": "66921", "Location": "POINT (-121.973057 42.684988)"}, {"ID": "37219", "FuelTypeCode": "ELEC", "StationName": "Dayton", "StreetAddress": "120 N 1st St", "City": "Dayton", "State": "WA", "ZIP": "99328", "StatusCode": "E", "ExpectedDate": "", "GroupsWithAccessCode": "Public", "GeocodeStatus": "200-9", "UpdatedAt": "12/21/2021 12:00:00 AM", "OwnerTypeCode": "", "OpenDate": "01/05/2021 12:00:00 AM", "AccessCode": "public", "FacilityType": "", "EVPricing": "", "X": "-117.98068", "Y": "46.320465", "GEOID": "53013", "County": "Columbia County, Washington", "Population": "3992", "Location": "POINT (-117.98068 46.320465)"}, {"ID": "41240", "FuelTypeCode": "ELEC", "StationName": "ONCUE 120 EV #1", "StreetAddress": "4100 E 15th St", "City": "Edmond", "State": "OK", "ZIP": "73013", "StatusCode": "E", "ExpectedDate": "", "GroupsWithAccessCode": "Public", "GeocodeStatus": "GPS", "UpdatedAt": "12/21/2021 12:00:00 AM", "OwnerTypeCode": "", "OpenDate": "01/27/2021 12:00:00 AM", "AccessCode": "public", "FacilityType": "", "EVPricing": "", "X": "-97.427072", "Y": "35.63728", "GEOID": "40109", "County": "Oklahoma County, Oklahoma", "Population": "787216", "Location": "POINT (-97.427072 35.63728)"}, {"ID": "52400", "FuelTypeCode": "ELEC", "StationName": "Muni Lot 3", "StreetAddress": "98 N High Street", "City": "Gahanna", "State": "OH", "ZIP": "43230", "StatusCode": "E", "ExpectedDate": "", "GroupsWithAccessCode": "Public", "GeocodeStatus": "GPS", "UpdatedAt": "12/21/2021 12:00:00 AM", "OwnerTypeCode": "", "OpenDate": "06/09/2021 12:00:00 AM", "AccessCode": "public", "FacilityType": "", "EVPricing": "", "X": "-82.877855", "Y": "40.020173", "GEOID": "39049", "County": "Franklin County, Ohio", "Population": "1290360", "Location": "POINT (-82.877855 40.020173)"}, {"ID": "53296", "FuelTypeCode": "ELEC", "StationName": "AMES EV DC1", "StreetAddress": "2108 Isaac Newton Dr", "City": "Ames", "State": "IA", "ZIP": "50010", "StatusCode": "E", "ExpectedDate": "", "GroupsWithAccessCode": "Public", "GeocodeStatus": "GPS", "UpdatedAt": "12/21/2021 12:00:00 AM", "OwnerTypeCode": "", "OpenDate": "07/15/2021 12:00:00 AM", "AccessCode": "public", "FacilityType": "", "EVPricing": "", "X": "-93.585322", "Y": "42.009389", "GEOID": "19169", "County": "Story County, Iowa", "Population": "96941", "Location": "POINT (-93.585322 42.009389)"}, {"ID": "36660", "FuelTypeCode": "ELEC", "StationName": "UW LOT 67", "StreetAddress": "2002 Linden Drive", "City": "Madison", "State": "WI", "ZIP": "53706", "StatusCode": "E", "ExpectedDate": "", "GroupsWithAccessCode": "Public", "GeocodeStatus": "GPS", "UpdatedAt": "12/21/2021 12:00:00 AM", "OwnerTypeCode": "", "OpenDate": "12/11/2020 12:00:00 AM", "AccessCode": "public", "FacilityType": "", "EVPricing": "", "X": "-89.420074", "Y": "43.076508", "GEOID": "55025", "County": "Dane County, Wisconsin", "Population": "536078", "Location": "POINT (-89.420074 43.076508)"}, {"ID": "52304", "FuelTypeCode": "ELEC", "StationName": "CITY OF MIAMI CITY HALL 2", "StreetAddress": "3400 Pan American Dr", "City": "Miami", "State": "FL", "ZIP": "33133", "StatusCode": "E", "ExpectedDate": "", "GroupsWithAccessCode": "Public", "GeocodeStatus": "GPS", "UpdatedAt": "12/21/2021 12:00:00 AM", "OwnerTypeCode": "", "OpenDate": "06/03/2021 12:00:00 AM", "AccessCode": "public", "FacilityType": "", "EVPricing": "", "X": "-80.234192", "Y": "25.727437", "GEOID": "", "County": "", "Population": "", "Location": "POINT (-80.234192 25.727437)"}, {"ID": "51017", "FuelTypeCode": "ELEC", "StationName": "WESTON VOLVO 302", "StreetAddress": "3660 Weston Rd", "City": "Davie", "State": "FL", "ZIP": "33331", "StatusCode": "E", "ExpectedDate": "", "GroupsWithAccessCode": "Public", "GeocodeStatus": "GPS", "UpdatedAt": "12/21/2021 12:00:00 AM", "OwnerTypeCode": "", "OpenDate": "04/24/2021 12:00:00 AM", "AccessCode": "public", "FacilityType": "", "EVPricing": "", "X": "-80.361172", "Y": "26.073821", "GEOID": "12011", "County": "Broward County, Florida", "Population": "1926205", "Location": "POINT (-80.361172 26.073821)"}, {"ID": "40856", "FuelTypeCode": "ELEC", "StationName": "STATEOFUTDAS DCFSOGDEN1", "StreetAddress": "950 25th St", "City": "Ogden", "State": "UT", "ZIP": "84401", "StatusCode": "E", "ExpectedDate": "", "GroupsWithAccessCode": "Public", "GeocodeStatus": "GPS", "UpdatedAt": "12/21/2021 12:00:00 AM", "OwnerTypeCode": "", "OpenDate": "01/27/2021 12:00:00 AM", "AccessCode": "public", "FacilityType": "", "EVPricing": "", "X": "-111.955248", "Y": "41.22078", "GEOID": "49057", "County": "Weber County, Utah", "Population": "251498", "Location": "POINT (-111.955248 41.22078)"}, {"ID": "41210", "FuelTypeCode": "ELEC", "StationName": "3CDC 3CDC1", "StreetAddress": "309 E 8th St", "City": "Cincinnati", "State": "OH", "ZIP": "45202", "StatusCode": "E", "ExpectedDate": "", "GroupsWithAccessCode": "Public", "GeocodeStatus": "GPS", "UpdatedAt": "12/21/2021 12:00:00 AM", "OwnerTypeCode": "", "OpenDate": "01/27/2021 12:00:00 AM", "AccessCode": "public", "FacilityType": "", "EVPricing": "", "X": "-84.508421", "Y": "39.105122", "GEOID": "39061", "County": "Hamilton County, Ohio", "Population": "813589", "Location": "POINT (-84.508421 39.105122)"}, {"ID": "43774", "FuelTypeCode": "ELEC", "StationName": "G1A G1C", "StreetAddress": "2600 Shattuck Ave", "City": "Berkeley", "State": "CA", "ZIP": "94704", "StatusCode": "E", "ExpectedDate": "", "GroupsWithAccessCode": "Public", "GeocodeStatus": "GPS", "UpdatedAt": "12/21/2021 12:00:00 AM", "OwnerTypeCode": "", "OpenDate": "01/27/2021 12:00:00 AM", "AccessCode": "public", "FacilityType": "", "EVPricing": "", "X": "-122.267671", "Y": "37.861612", "GEOID": "6001", "County": "Alameda County, California", "Population": "1656754", "Location": "POINT (-122.267671 37.861612)"}, {"ID": "36658", "FuelTypeCode": "ELEC", "StationName": "KANAB CENTER KANAB ST6", "StreetAddress": "202 E 100 N", "City": "Kanab", "State": "UT", "ZIP": "84741", "StatusCode": "E", "ExpectedDate": "", "GroupsWithAccessCode": "Public", "GeocodeStatus": "GPS", "UpdatedAt": "12/21/2021 12:00:00 AM", "OwnerTypeCode": "", "OpenDate": "12/11/2020 12:00:00 AM", "AccessCode": "public", "FacilityType": "", "EVPricing": "", "X": "-112.52448", "Y": "37.049057", "GEOID": "49025", "County": "Kane County, Utah", "Population": "7484", "Location": "POINT (-112.52448 37.049057)"}, {"ID": "59569", "FuelTypeCode": "ELEC", "StationName": "LPS LINCOLN HS", "StreetAddress": "2229 J St", "City": "Lincoln", "State": "NE", "ZIP": "68510", "StatusCode": "E", "ExpectedDate": "", "GroupsWithAccessCode": "Public", "GeocodeStatus": "GPS", "UpdatedAt": "12/21/2021 12:00:00 AM", "OwnerTypeCode": "", "OpenDate": "12/11/2021 12:00:00 AM", "AccessCode": "public", "FacilityType": "", "EVPricing": "", "X": "-96.688725", "Y": "40.808241", "GEOID": "31109", "County": "Lancaster County, Nebraska", "Population": "313158", "Location": "POINT (-96.688725 40.808241)"}, {"ID": "57117", "FuelTypeCode": "ELEC", "StationName": "H-E-B", "StreetAddress": "9710 Katy Fwy", "City": "Houston", "State": "TX", "ZIP": "77055", "StatusCode": "E", "ExpectedDate": "", "GroupsWithAccessCode": "Public", "GeocodeStatus": "GPS", "UpdatedAt": "12/21/2021 12:00:00 AM", "OwnerTypeCode": "", "OpenDate": "10/25/2021 12:00:00 AM", "AccessCode": "public", "FacilityType": "", "EVPricing": "", "X": "-95.532367", "Y": "29.785281", "GEOID": "48201", "County": "Harris County, Texas", "Population": "4646630", "Location": "POINT (-95.532367 29.785281)"}, {"ID": "59305", "FuelTypeCode": "ELEC", "StationName": "AXIS 2300 EV 2", "StreetAddress": "2300 Dupont Dr", "City": "Irvine", "State": "CA", "ZIP": "92612", "StatusCode": "E", "ExpectedDate": "", "GroupsWithAccessCode": "Public", "GeocodeStatus": "GPS", "UpdatedAt": "12/21/2021 12:00:00 AM", "OwnerTypeCode": "", "OpenDate": "12/08/2021 12:00:00 AM", "AccessCode": "public", "FacilityType": "", "EVPricing": "", "X": "-117.857563", "Y": "33.672489", "GEOID": "6059", "County": "Orange County, California", "Population": "3168044", "Location": "POINT (-117.857563 33.672489)"}, {"ID": "59322", "FuelTypeCode": "ELEC", "StationName": "NMF V STATION 6", "StreetAddress": "424 Hull St", "City": "Richmond", "State": "VA", "ZIP": "23224", "StatusCode": "E", "ExpectedDate": "", "GroupsWithAccessCode": "Public", "GeocodeStatus": "GPS", "UpdatedAt": "12/21/2021 12:00:00 AM", "OwnerTypeCode": "", "OpenDate": "12/08/2021 12:00:00 AM", "AccessCode": "public", "FacilityType": "", "EVPricing": "", "X": "-77.438108", "Y": "37.523821", "GEOID": "51760", "County": "Richmond city, Virginia", "Population": "226622", "Location": "POINT (-77.438108 37.523821)"}, {"ID": "58600", "FuelTypeCode": "ELEC", "StationName": "VCU N DECK 3", "StreetAddress": "601 N 10th St", "City": "Richmond", "State": "VA", "ZIP": "23298", "StatusCode": "E", "ExpectedDate": "", "GroupsWithAccessCode": "Public", "GeocodeStatus": "GPS", "UpdatedAt": "12/21/2021 12:00:00 AM", "OwnerTypeCode": "", "OpenDate": "11/13/2021 12:00:00 AM", "AccessCode": "public", "FacilityType": "", "EVPricing": "", "X": "-77.429663", "Y": "37.543431", "GEOID": "51760", "County": "Richmond city, Virginia", "Population": "226622", "Location": "POINT (-77.429663 37.543431)"}, {"ID": "53768", "FuelTypeCode": "ELEC", "StationName": "META MPK24-04 ADA", "StreetAddress": "200 Jefferson Dr", "City": "Menlo Park", "State": "CA", "ZIP": "94025", "StatusCode": "E", "ExpectedDate": "", "GroupsWithAccessCode": "Public", "GeocodeStatus": "GPS", "UpdatedAt": "12/21/2021 12:00:00 AM", "OwnerTypeCode": "", "OpenDate": "08/05/2021 12:00:00 AM", "AccessCode": "public", "FacilityType": "", "EVPricing": "", "X": "-122.169548", "Y": "37.480081", "GEOID": "6081", "County": "San Mateo County, California", "Population": "767423", "Location": "POINT (-122.169548 37.480081)"}, {"ID": "32572", "FuelTypeCode": "ELEC", "StationName": "PIE AE TLC STATION 1", "StreetAddress": "721 Barton Springs Rd", "City": "Austin", "State": "TX", "ZIP": "78704", "StatusCode": "E", "ExpectedDate": "", "GroupsWithAccessCode": "Public", "GeocodeStatus": "GPS", "UpdatedAt": "12/21/2021 12:00:00 AM", "OwnerTypeCode": "", "OpenDate": "06/12/2020 12:00:00 AM", "AccessCode": "public", "FacilityType": "", "EVPricing": "", "X": "-97.751993", "Y": "30.258379", "GEOID": "48453", "County": "Travis County, Texas", "Population": "1226805", "Location": "POINT (-97.751993 30.258379)"}, {"ID": "42891", "FuelTypeCode": "ELEC", "StationName": "LONGFELLOW 1800 8 (90,90)", "StreetAddress": "1800 Owens St", "City": "San Francisco", "State": "CA", "ZIP": "94158", "StatusCode": "E", "ExpectedDate": "", "GroupsWithAccessCode": "Public", "GeocodeStatus": "GPS", "UpdatedAt": "12/21/2021 12:00:00 AM", "OwnerTypeCode": "", "OpenDate": "01/27/2021 12:00:00 AM", "AccessCode": "public", "FacilityType": "", "EVPricing": "", "X": "-122.392607", "Y": "37.765772", "GEOID": "6075", "County": "San Francisco County, California", "Population": "874961", "Location": "POINT (-122.392607 37.765772)"}, {"ID": "46806", "FuelTypeCode": "ELEC", "StationName": "COUNTY EV 23-24", "StreetAddress": "150 W Tasman Dr", "City": "San Jose", "State": "CA", "ZIP": "95134", "StatusCode": "E", "ExpectedDate": "", "GroupsWithAccessCode": "Public", "GeocodeStatus": "GPS", "UpdatedAt": "12/21/2021 12:00:00 AM", "OwnerTypeCode": "", "OpenDate": "01/27/2021 12:00:00 AM", "AccessCode": "public", "FacilityType": "", "EVPricing": "", "X": "-121.952993", "Y": "37.40808", "GEOID": "6085", "County": "Santa Clara County, California", "Population": "1927470", "Location": "POINT (-121.952993 37.40808)"}, {"ID": "37160", "FuelTypeCode": "ELEC", "StationName": "Omni CG Self Park - 2", "StreetAddress": "1500 Masters Blvd", "City": "ChampionsGate", "State": "FL", "ZIP": "33896", "StatusCode": "E", "ExpectedDate": "", "GroupsWithAccessCode": "Public", "GeocodeStatus": "GPS", "UpdatedAt": "12/21/2021 12:00:00 AM", "OwnerTypeCode": "", "OpenDate": "01/05/2021 12:00:00 AM", "AccessCode": "public", "FacilityType": "", "EVPricing": "", "X": "-81.625946", "Y": "28.261644", "GEOID": "12097", "County": "Osceola County, Florida", "Population": "351955", "Location": "POINT (-81.625946 28.261644)"}, {"ID": "29175", "FuelTypeCode": "ELEC", "StationName": "MARY STREET EVCS KR #4", "StreetAddress": "3310 A Mary St", "City": "Miami", "State": "FL", "ZIP": "33133", "StatusCode": "E", "ExpectedDate": "", "GroupsWithAccessCode": "Public", "GeocodeStatus": "GPS", "UpdatedAt": "12/21/2021 12:00:00 AM", "OwnerTypeCode": "", "OpenDate": "06/04/2020 12:00:00 AM", "AccessCode": "public", "FacilityType": "", "EVPricing": "", "X": "-80.239719", "Y": "25.729679", "GEOID": "12086", "County": "Miami-Dade County, Florida", "Population": "2699428", "Location": "POINT (-80.239719 25.729679)"}, {"ID": "21625", "FuelTypeCode": "ELEC", "StationName": "MEIJER STORES 309 MENTOR 2", "StreetAddress": "9164 Mentor Ave", "City": "Mentor", "State": "OH", "ZIP": "44060", "StatusCode": "E", "ExpectedDate": "", "GroupsWithAccessCode": "Public", "GeocodeStatus": "GPS", "UpdatedAt": "12/21/2021 12:00:00 AM", "OwnerTypeCode": "", "OpenDate": "04/02/2019 12:00:00 AM", "AccessCode": "public", "FacilityType": "", "EVPricing": "", "X": "-81.311688", "Y": "41.67497", "GEOID": "39085", "County": "Lake County, Ohio", "Population": "229954", "Location": "POINT (-81.311688 41.67497)"}, {"ID": "14222", "FuelTypeCode": "LPG", "StationName": "Delta Fuel", "StreetAddress": "27797 Highway 15", "City": "Ferriday", "State": "LA", "ZIP": "71334", "StatusCode": "E", "ExpectedDate": "", "GroupsWithAccessCode": "Public", "GeocodeStatus": "200-9", "UpdatedAt": "03/15/2021 12:00:00 AM", "OwnerTypeCode": "P", "OpenDate": "03/03/2021 12:00:00 AM", "AccessCode": "public", "FacilityType": "FUEL_RESELLER", "EVPricing": "", "X": "-91.56253", "Y": "31.629263", "GEOID": "22029", "County": "Concordia Parish, Louisiana", "Population": "19778", "Location": "POINT (-91.56253 31.629263)"}, {"ID": "2164", "FuelTypeCode": "E85", "StationName": "Krachey's BP Truck Stop", "StreetAddress": "1910 S Marquette Rd", "City": "Prairie Du Chien", "State": "WI", "ZIP": "53821", "StatusCode": "E", "ExpectedDate": "", "GroupsWithAccessCode": "Public", "GeocodeStatus": "200-9", "UpdatedAt": "03/04/2021 12:00:00 AM", "OwnerTypeCode": "P", "OpenDate": "06/15/2007 12:00:00 AM", "AccessCode": "public", "FacilityType": "TRUCK_STOP", "EVPricing": "", "X": "-91.128131", "Y": "43.029262", "GEOID": "55023", "County": "Crawford County, Wisconsin", "Population": "16235", "Location": "POINT (-91.128131 43.029262)"}, {"ID": "37042", "FuelTypeCode": "ELEC", "StationName": "Maple Hill Volvo Cars", "StreetAddress": "5622 W Main St", "City": "Kalamazoo", "State": "MI", "ZIP": "49009", "StatusCode": "E", "ExpectedDate": "", "GroupsWithAccessCode": "Public", "GeocodeStatus": "GPS", "UpdatedAt": "08/04/2021 12:00:00 AM", "OwnerTypeCode": "P", "OpenDate": "12/28/2020 12:00:00 AM", "AccessCode": "public", "FacilityType": "CAR_DEALER", "EVPricing": "FREE", "X": "-85.6591", "Y": "42.296286", "GEOID": "26077", "County": "Kalamazoo County, Michigan", "Population": "262745", "Location": "POINT (-85.6591 42.296286)"}, {"ID": "8608", "FuelTypeCode": "ELEC", "StationName": "Internal Services Department Telecomm", "StreetAddress": "1110 N Eastern Ave", "City": "Los Angeles", "State": "CA", "ZIP": "90063", "StatusCode": "E", "ExpectedDate": "", "GroupsWithAccessCode": "Public", "GeocodeStatus": "GPS", "UpdatedAt": "12/09/2021 12:00:00 AM", "OwnerTypeCode": "LG", "OpenDate": "08/01/2014 12:00:00 AM", "AccessCode": "public", "FacilityType": "MUNI_GOV", "EVPricing": "Free", "X": "-118.170353", "Y": "34.048249", "GEOID": "6037", "County": "Los Angeles County, California", "Population": "10081570", "Location": "POINT (-118.170353 34.048249)"}, {"ID": "25696", "FuelTypeCode": "ELEC", "StationName": "PUBLIC STATIONS LAKE ST GEN PUB", "StreetAddress": "N Lake &amp; State", "City": "Madison", "State": "WI", "ZIP": "53703", "StatusCode": "E", "ExpectedDate": "", "GroupsWithAccessCode": "Public", "GeocodeStatus": "GPS", "UpdatedAt": "12/21/2021 12:00:00 AM", "OwnerTypeCode": "", "OpenDate": "12/04/2019 12:00:00 AM", "AccessCode": "public", "FacilityType": "", "EVPricing": "", "X": "-89.397572", "Y": "43.07423", "GEOID": "55025", "County": "Dane County, Wisconsin", "Population": "536078", "Location": "POINT (-89.397572 43.07423)"}, {"ID": "646", "FuelTypeCode": "LPG", "StationName": "U-Haul", "StreetAddress": "1702 Mechanical Blvd", "City": "Garner", "State": "NC", "ZIP": "27529", "StatusCode": "E", "ExpectedDate": "", "GroupsWithAccessCode": "Public", "GeocodeStatus": "200-9", "UpdatedAt": "10/04/2021 12:00:00 AM", "OwnerTypeCode": "P", "OpenDate": "11/01/2000 12:00:00 AM", "AccessCode": "public", "FacilityType": "RENTAL_CAR_RETURN", "EVPricing": "", "X": "-78.64714", "Y": "35.72547", "GEOID": "37183", "County": "Wake County, North Carolina", "Population": "1069079", "Location": "POINT (-78.64714 35.72547)"}, {"ID": "13951", "FuelTypeCode": "ELEC", "StationName": "EVERGY @BNK OF AM-212B", "StreetAddress": "8679 College Blvd @ Bank of America", "City": "Overland Park", "State": "KS", "ZIP": "66210", "StatusCode": "E", "ExpectedDate": "", "GroupsWithAccessCode": "Public", "GeocodeStatus": "GPS", "UpdatedAt": "12/21/2021 12:00:00 AM", "OwnerTypeCode": "", "OpenDate": "09/14/2017 12:00:00 AM", "AccessCode": "public", "FacilityType": "", "EVPricing": "", "X": "-94.685957", "Y": "38.926466", "GEOID": "20091", "County": "Johnson County, Kansas", "Population": "591506", "Location": "POINT (-94.685957 38.926466)"}, {"ID": "31844", "FuelTypeCode": "ELEC", "StationName": "ALLIANCE CENTER TWO ALLIANCE #1", "StreetAddress": "3560 Lenox Road", "City": "Atlanta", "State": "GA", "ZIP": "30326", "StatusCode": "E", "ExpectedDate": "", "GroupsWithAccessCode": "Public", "GeocodeStatus": "GPS", "UpdatedAt": "12/21/2021 12:00:00 AM", "OwnerTypeCode": "", "OpenDate": "06/12/2020 12:00:00 AM", "AccessCode": "public", "FacilityType": "", "EVPricing": "", "X": "-84.365865", "Y": "33.851657", "GEOID": "13121", "County": "Fulton County, Georgia", "Population": "1036200", "Location": "POINT (-84.365865 33.851657)"}]